{
"type": "FeatureCollection",
"name": "solar_plants",
"crs": { "type": "name", "properties": { "name": "urn:ogc:def:crs:OGC:1.3:CRS84" } },
"features": [
{ "type": "Feature", "properties": { "name": "Dầu Tiếng 3", "mw": 150.0, "production_mkwh_year": 110.0, "cons_start": 1546275600.0, "op_start": 1604163600.0, "adm_loc": "Tân Châu", "region_loc": "Tây Ninh", "lat": 106.20168, "lon": 11.47792, "efficiency": 1363.6363636363637 }, "geometry": { "type": "Point", "coordinates": [ 106.20168, 11.47792 ] } },
{ "type": "Feature", "properties": { "name": "Phong Điền 2", "mw": 50.0, "production_mkwh_year": 68.0, "cons_start": 1572541200.0, "op_start": 1606755600.0, "adm_loc": "Phong Điền", "region_loc": "Thừa Thiên Huế", "lat": 107.39972, "lon": 16.61182, "efficiency": 735.29411764705878 }, "geometry": { "type": "Point", "coordinates": [ 107.39972, 16.61182 ] } },
{ "type": "Feature", "properties": { "name": "Văn Giáo 1", "mw": 50.0, "production_mkwh_year": 69.0, "cons_start": 1533056400.0, "op_start": 1559322000.0, "adm_loc": "Tịnh Biên", "region_loc": "An Giang", "lat": 105.01314, "lon": 10.46995, "efficiency": 724.63768115942025 }, "geometry": { "type": "Point", "coordinates": [ 105.01314, 10.46995 ] } },
{ "type": "Feature", "properties": { "name": "Văn Giáo 2", "mw": 50.0, "production_mkwh_year": 69.0, "cons_start": 1533056400.0, "op_start": 1559322000.0, "adm_loc": "Tịnh Biên", "region_loc": "An Giang", "lat": 105.01314, "lon": 10.46995, "efficiency": 724.63768115942025 }, "geometry": { "type": "Point", "coordinates": [ 105.01314, 10.46995 ] } },
{ "type": "Feature", "properties": { "name": "Sao Mai Solar PV1", "mw": 210.0, "production_mkwh_year": 302.0, "cons_start": 1527786000.0, "op_start": 1561914000.0, "adm_loc": "Tịnh Biên", "region_loc": "An Giang", "lat": 105.01042, "lon": 10.47612, "efficiency": 695.36423841059604 }, "geometry": { "type": "Point", "coordinates": [ 105.01042, 10.47612 ] } },
{ "type": "Feature", "properties": { "name": "BMT Đắk Lắk", "mw": 30.0, "production_mkwh_year": 44.0, "cons_start": 1533056400.0, "op_start": 1554051600.0, "adm_loc": "Krông Pắc", "region_loc": "Đăk Lăk", "lat": 108.36862, "lon": 12.77847, "efficiency": 681.81818181818187 }, "geometry": { "type": "Point", "coordinates": [ 108.36862, 12.77847 ] } },
{ "type": "Feature", "properties": { "name": "Đa Mi", "mw": 47.5, "production_mkwh_year": 70.0, "cons_start": 1506790800.0, "op_start": 1559322000.0, "adm_loc": "Hàm Thuận Bắc", "region_loc": "Bình Thuận", "lat": 107.84557, "lon": 11.25392, "efficiency": 678.57142857142856 }, "geometry": { "type": "Point", "coordinates": [ 107.84557, 11.25392 ] } },
{ "type": "Feature", "properties": { "name": "BCG Băng Dương", "mw": 40.6, "production_mkwh_year": 60.0, "cons_start": 1530378000.0, "op_start": 1559322000.0, "adm_loc": "Thạnh Hóa", "region_loc": "Long An", "lat": 106.17061, "lon": 10.6154, "efficiency": 676.66666666666663 }, "geometry": { "type": "Point", "coordinates": [ 106.17061, 10.6154 ] } },
{ "type": "Feature", "properties": { "name": "Hacom Solar", "mw": 50.0, "production_mkwh_year": 75.0, "cons_start": 1554051600.0, "op_start": 1569862800.0, "adm_loc": "Thuận Nam", "region_loc": "Ninh Thuận", "lat": 108.8543459, "lon": 11.40455358, "efficiency": 666.66666666666663 }, "geometry": { "type": "Point", "coordinates": [ 108.8543459, 11.40455358 ] } },
{ "type": "Feature", "properties": { "name": "Cát Hiệp", "mw": 49.5, "production_mkwh_year": 75.0, "cons_start": 1519837200.0, "op_start": 1556643600.0, "adm_loc": "Phù Cát", "region_loc": "Bình Định", "lat": 109.01638, "lon": 14.01913, "efficiency": 660.0 }, "geometry": { "type": "Point", "coordinates": [ 109.01638, 14.01913 ] } },
{ "type": "Feature", "properties": { "name": "Trung Nam Trà Vinh", "mw": 165.0, "production_mkwh_year": 250.0, "cons_start": 1546275600.0, "op_start": 1575133200.0, "adm_loc": "Duyên Hải", "region_loc": "Trà Vinh", "lat": 106.52573, "lon": 9.59876, "efficiency": 660.0 }, "geometry": { "type": "Point", "coordinates": [ 106.52573, 9.59876 ] } },
{ "type": "Feature", "properties": { "name": "TTC An Hòa 1&2", "mw": 118.8, "production_mkwh_year": 184.0, "cons_start": 1525107600.0, "op_start": 1559322000.0, "adm_loc": "Trảng Bàng", "region_loc": "Tây Ninh", "lat": 106.28139, "lon": 11.02861, "efficiency": 645.6521739130435 }, "geometry": { "type": "Point", "coordinates": [ 106.28139, 11.02861 ] } },
{ "type": "Feature", "properties": { "name": "AMI Khánh Hòa", "mw": 47.5, "production_mkwh_year": 74.0, "cons_start": 1538326800.0, "op_start": 1556643600.0, "adm_loc": "Cam Lâm", "region_loc": "Khánh Hòa", "lat": 109.13137, "lon": 12.01029, "efficiency": 641.89189189189187 }, "geometry": { "type": "Point", "coordinates": [ 109.13137, 12.01029 ] } },
{ "type": "Feature", "properties": { "name": "Đầm Trà Ổ", "mw": 50.0, "production_mkwh_year": 78.0, "cons_start": 1546275600.0, "op_start": 1606755600.0, "adm_loc": "Phù Mỹ", "region_loc": "Bình Định", "lat": 109.1227, "lon": 14.29444, "efficiency": 641.02564102564099 }, "geometry": { "type": "Point", "coordinates": [ 109.1227, 14.29444 ] } },
{ "type": "Feature", "properties": { "name": "Thác Mơ", "mw": 50.0, "production_mkwh_year": 78.0, "cons_start": 1593536400.0, "op_start": 1606755600.0, "adm_loc": "Bù Gia Mập", "region_loc": "Bình Phước", "lat": 108.01583, "lon": 11.85648, "efficiency": 641.02564102564099 }, "geometry": { "type": "Point", "coordinates": [ 108.01583, 11.85648 ] } },
{ "type": "Feature", "properties": { "name": "Hòa Hội", "mw": 214.0, "production_mkwh_year": 334.0, "cons_start": 1514739600.0, "op_start": 1559322000.0, "adm_loc": "Phú Hòa", "region_loc": "Phú Yên", "lat": 109.13818, "lon": 13.08753, "efficiency": 640.71856287425146 }, "geometry": { "type": "Point", "coordinates": [ 109.13818, 13.08753 ] } },
{ "type": "Feature", "properties": { "name": "Cam Lâm", "mw": 100.0, "production_mkwh_year": 158.0, "cons_start": 1530378000.0, "op_start": 1561914000.0, "adm_loc": "Cam Lâm", "region_loc": "Khánh Hòa", "lat": 109.09633, "lon": 12.01391, "efficiency": 632.91139240506334 }, "geometry": { "type": "Point", "coordinates": [ 109.09633, 12.01391 ] } },
{ "type": "Feature", "properties": { "name": "Phong Phú", "mw": 42.0, "production_mkwh_year": 67.0, "cons_start": 1533056400.0, "op_start": 1554051600.0, "adm_loc": "Tuy Phong", "region_loc": "Bình Thuận", "lat": 108.63538, "lon": 11.22711, "efficiency": 626.8656716417911 }, "geometry": { "type": "Point", "coordinates": [ 108.63538, 11.22711 ] } },
{ "type": "Feature", "properties": { "name": "Sông Giang", "mw": 50.0, "production_mkwh_year": 80.0, "cons_start": 1527786000.0, "op_start": 1556643600.0, "adm_loc": "m Thịnh Đông và Cam Thịnh Tây, Tp.Cam Ranh", "region_loc": "Khánh Hòa", "lat": 109.0775, "lon": 11.8794, "efficiency": 625.0 }, "geometry": { "type": "Point", "coordinates": [ 109.0775, 11.8794 ] } },
{ "type": "Feature", "properties": { "name": "Nhị Hà - Thuận Nam 13", "mw": 50.0, "production_mkwh_year": 80.0, "cons_start": 1525107600.0, "op_start": 1561914000.0, "adm_loc": "Thuận Nam", "region_loc": "Ninh Thuận", "lat": 108.83093, "lon": 11.46036, "efficiency": 625.0 }, "geometry": { "type": "Point", "coordinates": [ 108.83093, 11.46036 ] } },
{ "type": "Feature", "properties": { "name": "Nhị Hà - Bitexco", "mw": 50.0, "production_mkwh_year": 80.0, "cons_start": 1514739600.0, "op_start": 1567270800.0, "adm_loc": "Thuận Nam", "region_loc": "Ninh Thuận", "lat": 108.81186, "lon": 11.4111, "efficiency": 625.0 }, "geometry": { "type": "Point", "coordinates": [ 108.81186, 11.4111 ] } },
{ "type": "Feature", "properties": { "name": "Vĩnh Tân 1,2", "mw": 49.0, "production_mkwh_year": 79.0, "cons_start": 1575133200.0, "op_start": 1559322000.0, "adm_loc": "Tuy Phong", "region_loc": "Bình Thuận", "lat": 108.79848, "lon": 11.31928, "efficiency": 620.25316455696202 }, "geometry": { "type": "Point", "coordinates": [ 108.79848, 11.31928 ] } },
{ "type": "Feature", "properties": { "name": "Phước Thái 1", "mw": 50.0, "production_mkwh_year": 81.0, "cons_start": 1567270800.0, "op_start": 1593536400.0, "adm_loc": "Ninh Phước", "region_loc": "Ninh Thuận", "lat": 108.87389, "lon": 11.58673, "efficiency": 617.28395061728395 }, "geometry": { "type": "Point", "coordinates": [ 108.87389, 11.58673 ] } },
{ "type": "Feature", "properties": { "name": "Dầu Tiếng 1, 2", "mw": 420.0, "production_mkwh_year": 688.0, "cons_start": 1514739600.0, "op_start": 1559322000.0, "adm_loc": "Tân Châu và Dương Minh Châu", "region_loc": "Tây Ninh", "lat": 106.21671, "lon": 11.46383, "efficiency": 610.46511627906978 }, "geometry": { "type": "Point", "coordinates": [ 106.21671, 11.46383 ] } },
{ "type": "Feature", "properties": { "name": "Gelex Ninh Thuận", "mw": 50.0, "production_mkwh_year": 82.0, "cons_start": 1535734800.0, "op_start": 1559322000.0, "adm_loc": "Thuận Nam", "region_loc": "Ninh Thuận", "lat": 108.99585, "lon": 11.4396, "efficiency": 609.7560975609756 }, "geometry": { "type": "Point", "coordinates": [ 108.99585, 11.4396 ] } },
{ "type": "Feature", "properties": { "name": "Mỹ Hiệp", "mw": 50.0, "production_mkwh_year": 82.0, "cons_start": null, "op_start": 1606755600.0, "adm_loc": "Phù Mỹ", "region_loc": "Bình Định", "lat": 109.01234, "lon": 14.11963, "efficiency": 609.7560975609756 }, "geometry": { "type": "Point", "coordinates": [ 109.01234, 14.11963 ] } },
{ "type": "Feature", "properties": { "name": "BP Solar 1", "mw": 45.0, "production_mkwh_year": 74.0, "cons_start": 1527786000.0, "op_start": 1546275600.0, "adm_loc": "Ninh Phước", "region_loc": "Ninh Thuận", "lat": 108.87294, "lon": 11.54074, "efficiency": 608.10810810810813 }, "geometry": { "type": "Point", "coordinates": [ 108.87294, 11.54074 ] } },
{ "type": "Feature", "properties": { "name": "BIM 1,2,3 Ninh Thuận", "mw": 330.0, "production_mkwh_year": 545.0, "cons_start": 1514739600.0, "op_start": 1554051600.0, "adm_loc": "Thuận Nam", "region_loc": "Ninh Thuận", "lat": 108.87676, "lon": 11.41005, "efficiency": 605.50458715596335 }, "geometry": { "type": "Point", "coordinates": [ 108.87676, 11.41005 ] } },
{ "type": "Feature", "properties": { "name": "Xuân Thọ 2", "mw": 45.9, "production_mkwh_year": 76.0, "cons_start": 1546275600.0, "op_start": 1559322000.0, "adm_loc": "ân Thọ 2 thị xã Sông Cầu", "region_loc": "Phú Yên", "lat": 109.17754, "lon": 13.37685, "efficiency": 603.9473684210526 }, "geometry": { "type": "Point", "coordinates": [ 109.17754, 13.37685 ] } },
{ "type": "Feature", "properties": { "name": "Xuân Thọ 1", "mw": 45.9, "production_mkwh_year": 76.0, "cons_start": 1546275600.0, "op_start": 1559322000.0, "adm_loc": "ân Thọ 1 thị xã Sông Cầu", "region_loc": "Phú Yên", "lat": 109.16247, "lon": 13.41384, "efficiency": 603.9473684210526 }, "geometry": { "type": "Point", "coordinates": [ 109.16247, 13.41384 ] } },
{ "type": "Feature", "properties": { "name": "Vĩnh Hảo 6", "mw": 50.0, "production_mkwh_year": 83.0, "cons_start": 1538326800.0, "op_start": 1559322000.0, "adm_loc": "Tuy Phong", "region_loc": "Bình Thuận", "lat": 108.75197, "lon": 11.30651, "efficiency": 602.40963855421683 }, "geometry": { "type": "Point", "coordinates": [ 108.75197, 11.30651 ] } },
{ "type": "Feature", "properties": { "name": "Phước Ninh", "mw": 45.0, "production_mkwh_year": 75.0, "cons_start": 1577811600.0, "op_start": 1590944400.0, "adm_loc": "Thuận Nam", "region_loc": "Ninh Thuận", "lat": 108.88762, "lon": 11.44321, "efficiency": 600.0 }, "geometry": { "type": "Point", "coordinates": [ 108.88762, 11.44321 ] } },
{ "type": "Feature", "properties": { "name": "Solar farm Nhơn Hải", "mw": 35.0, "production_mkwh_year": 59.0, "cons_start": 1561914000.0, "op_start": 1590944400.0, "adm_loc": "Ninh Hải", "region_loc": "Ninh Thuận", "lat": 109.0957094, "lon": 11.60552715, "efficiency": 593.22033898305085 }, "geometry": { "type": "Point", "coordinates": [ 109.0957094, 11.60552715 ] } },
{ "type": "Feature", "properties": { "name": "Mũi Né", "mw": 40.0, "production_mkwh_year": 68.0, "cons_start": 1527786000.0, "op_start": 1559322000.0, "adm_loc": "g Mũi Né thành phố Phan Thiết", "region_loc": "Bình Thuận", "lat": 108.31724, "lon": 10.98902, "efficiency": 588.23529411764707 }, "geometry": { "type": "Point", "coordinates": [ 108.31724, 10.98902 ] } },
{ "type": "Feature", "properties": { "name": "KN Cam Lâm", "mw": 45.0, "production_mkwh_year": 79.0, "cons_start": 1522515600.0, "op_start": 1561914000.0, "adm_loc": "Cam Lâm", "region_loc": "Khánh Hòa", "lat": 109.0828, "lon": 11.9928, "efficiency": 569.62025316455697 }, "geometry": { "type": "Point", "coordinates": [ 109.0828, 11.9928 ] } },
{ "type": "Feature", "properties": { "name": "Xuân Thiện Ea Súp", "mw": 831.0, "production_mkwh_year": 1500.0, "cons_start": 1585674000.0, "op_start": 1604163600.0, "adm_loc": "Ea Súp", "region_loc": "Đăk Lăk", "lat": 107.67045, "lon": 13.3097, "efficiency": 554.0 }, "geometry": { "type": "Point", "coordinates": [ 107.67045, 13.3097 ] } },
{ "type": "Feature", "properties": { "name": "Mộ Đức", "mw": 19.2, "production_mkwh_year": 35.0, "cons_start": 1514739600.0, "op_start": 1554051600.0, "adm_loc": "Mộ Đức", "region_loc": "Quảng Ngãi", "lat": 108.92823, "lon": 14.96457, "efficiency": 548.57142857142856 }, "geometry": { "type": "Point", "coordinates": [ 108.92823, 14.96457 ] } },
{ "type": "Feature", "properties": { "name": "KN Vạn Ninh", "mw": 86.7, "production_mkwh_year": 162.0, "cons_start": 1590944400.0, "op_start": 1606755600.0, "adm_loc": "Vạn Ninh", "region_loc": "Khánh Hòa", "lat": 109.17426, "lon": 12.59114, "efficiency": 535.18518518518522 }, "geometry": { "type": "Point", "coordinates": [ 109.17426, 12.59114 ] } },
{ "type": "Feature", "properties": { "name": "Hồng Phong 4", "mw": 48.0, "production_mkwh_year": 92.0, "cons_start": 1530378000.0, "op_start": 1559322000.0, "adm_loc": "Bắc Bình", "region_loc": "Bình Thuận", "lat": 108.30364, "lon": 11.03911, "efficiency": 521.73913043478262 }, "geometry": { "type": "Point", "coordinates": [ 108.30364, 11.03911 ] } },
{ "type": "Feature", "properties": { "name": "Xuân Thiện Thuận Bắc", "mw": 256.0, "production_mkwh_year": 500.0, "cons_start": 1546275600.0, "op_start": 1580490000.0, "adm_loc": "Thuận Bắc", "region_loc": "Ninh Thuận", "lat": 109.00417, "lon": 11.68618, "efficiency": 512.0 }, "geometry": { "type": "Point", "coordinates": [ 109.00417, 11.68618 ] } },
{ "type": "Feature", "properties": { "name": "Long Thành", "mw": 10.0, "production_mkwh_year": 20.0, "cons_start": 1514739600.0, "op_start": 1556643600.0, "adm_loc": "Ea Súp", "region_loc": "Đăk Lăk", "lat": 107.87716, "lon": 13.04384, "efficiency": 500.0 }, "geometry": { "type": "Point", "coordinates": [ 107.87716, 13.04384 ] } },
{ "type": "Feature", "properties": { "name": "Bàu Ngứ", "mw": 50.0, "production_mkwh_year": 100.0, "cons_start": 1483203600.0, "op_start": 1561914000.0, "adm_loc": "Thuận Nam", "region_loc": "Ninh Thuận", "lat": 108.96323, "lon": 11.47036, "efficiency": 500.0 }, "geometry": { "type": "Point", "coordinates": [ 108.96323, 11.47036 ] } },
{ "type": "Feature", "properties": { "name": "Sông Lũy 1", "mw": 39.0, "production_mkwh_year": 80.0, "cons_start": 1527786000.0, "op_start": 1556643600.0, "adm_loc": "Bắc Bình", "region_loc": "Bình Thuận", "lat": 108.32453, "lon": 11.20077, "efficiency": 487.5 }, "geometry": { "type": "Point", "coordinates": [ 108.32453, 11.20077 ] } },
{ "type": "Feature", "properties": { "name": "Tuy Phong", "mw": 30.0, "production_mkwh_year": 63.0, "cons_start": 1533056400.0, "op_start": 1559322000.0, "adm_loc": "Tuy Phong", "region_loc": "Bình Thuận", "lat": 108.75577, "lon": 11.28441, "efficiency": 476.1904761904762 }, "geometry": { "type": "Point", "coordinates": [ 108.75577, 11.28441 ] } },
{ "type": "Feature", "properties": { "name": "VSP Bình Thuận 2", "mw": 30.0, "production_mkwh_year": 63.0, "cons_start": 1522515600.0, "op_start": 1559322000.0, "adm_loc": "Tuy Phong", "region_loc": "Bình Thuận", "lat": 108.71996, "lon": 11.29411, "efficiency": 476.1904761904762 }, "geometry": { "type": "Point", "coordinates": [ 108.71996, 11.29411 ] } },
{ "type": "Feature", "properties": { "name": "Krông Pa 2", "mw": 49.0, "production_mkwh_year": 103.0, "cons_start": 1514739600.0, "op_start": 1543597200.0, "adm_loc": "Krông Pa", "region_loc": "Gia Lai", "lat": 108.64995, "lon": 13.23471, "efficiency": 475.72815533980582 }, "geometry": { "type": "Point", "coordinates": [ 108.64995, 13.23471 ] } },
{ "type": "Feature", "properties": { "name": "TTC Krông Pa", "mw": 49.0, "production_mkwh_year": 103.0, "cons_start": 1533056400.0, "op_start": 1543597200.0, "adm_loc": "Krông Pa", "region_loc": "Gia Lai", "lat": 108.65539, "lon": 13.2266, "efficiency": 475.72815533980582 }, "geometry": { "type": "Point", "coordinates": [ 108.65539, 13.2266 ] } },
{ "type": "Feature", "properties": { "name": "Trúc Sơn", "mw": 36.5, "production_mkwh_year": 80.0, "cons_start": 1548954000.0, "op_start": 1559322000.0, "adm_loc": "Cư Jút", "region_loc": "Đăk Nông", "lat": 107.86053, "lon": 12.57496, "efficiency": 456.25 }, "geometry": { "type": "Point", "coordinates": [ 107.86053, 12.57496 ] } },
{ "type": "Feature", "properties": { "name": "Hoàng Thái Gia", "mw": 50.0, "production_mkwh_year": 110.0, "cons_start": 1514739600.0, "op_start": 1543597200.0, "adm_loc": "Bến Cầu", "region_loc": "Tây Ninh", "lat": 106.19609, "lon": 11.09869, "efficiency": 454.54545454545456 }, "geometry": { "type": "Point", "coordinates": [ 106.19609, 11.09869 ] } },
{ "type": "Feature", "properties": { "name": "Trung Nam NT", "mw": 204.0, "production_mkwh_year": 450.0, "cons_start": 1530378000.0, "op_start": 1554051600.0, "adm_loc": "Thuận Bắc", "region_loc": "Ninh Thuận", "lat": 109.0299, "lon": 11.68821, "efficiency": 453.33333333333331 }, "geometry": { "type": "Point", "coordinates": [ 109.0299, 11.68821 ] } },
{ "type": "Feature", "properties": { "name": "Gio Thành 1&2", "mw": 100.0, "production_mkwh_year": 1272.0, "cons_start": 1546275600.0, "op_start": 1575133200.0, "adm_loc": "Gio Linh", "region_loc": "Quảng Trị", "lat": 107.13958, "lon": 16.92514, "efficiency": 78.616352201257868 }, "geometry": { "type": "Point", "coordinates": [ 107.13958, 16.92514 ] } },
{ "type": "Feature", "properties": { "name": "LIG Quảng Trị", "mw": 49.5, "production_mkwh_year": 676.0, "cons_start": 1514739600.0, "op_start": 1559322000.0, "adm_loc": "Gio Linh", "region_loc": "Quảng Trị", "lat": 107.1523, "lon": 16.91742, "efficiency": 73.224852071005913 }, "geometry": { "type": "Point", "coordinates": [ 107.1523, 16.91742 ] } },
{ "type": "Feature", "properties": { "name": "Bình Nguyên", "mw": 50.0, "production_mkwh_year": 737.0, "cons_start": 1514739600.0, "op_start": 1559322000.0, "adm_loc": "Bình Sơn", "region_loc": "Quảng Ngãi", "lat": 108.70907, "lon": 15.33327, "efficiency": 67.84260515603799 }, "geometry": { "type": "Point", "coordinates": [ 108.70907, 15.33327 ] } },
{ "type": "Feature", "properties": { "name": "Sê San 4", "mw": 49.0, "production_mkwh_year": 724.0, "cons_start": 1575133200.0, "op_start": 1604163600.0, "adm_loc": "Ia H'Drai", "region_loc": "Kon Tum", "lat": 107.48801, "lon": 13.97227, "efficiency": 67.679558011049721 }, "geometry": { "type": "Point", "coordinates": [ 107.48801, 13.97227 ] } },
{ "type": "Feature", "properties": { "name": "Cà Mau", "mw": 50.0, "production_mkwh_year": 739.0, "cons_start": 1514739600.0, "op_start": 1559322000.0, "adm_loc": "Ngọc Hiển", "region_loc": "Cà Mau", "lat": 105.01517, "lon": 8.61143, "efficiency": 67.658998646820024 }, "geometry": { "type": "Point", "coordinates": [ 105.01517, 8.61143 ] } },
{ "type": "Feature", "properties": { "name": "TTC Phong Điền", "mw": 35.0, "production_mkwh_year": 616.0, "cons_start": 1517418000.0, "op_start": 1538326800.0, "adm_loc": "Phong Điền", "region_loc": "Thừa Thiên - Huế", "lat": 107.4251, "lon": 16.69974, "efficiency": 56.81818181818182 }, "geometry": { "type": "Point", "coordinates": [ 107.4251, 16.69974 ] } },
{ "type": "Feature", "properties": { "name": "Cư Jút", "mw": 50.0, "production_mkwh_year": 947.0, "cons_start": 1504198800.0, "op_start": 1554051600.0, "adm_loc": "Cư Jút", "region_loc": "Đăk Nông", "lat": 107.87268, "lon": 12.59676, "efficiency": 52.798310454065472 }, "geometry": { "type": "Point", "coordinates": [ 107.87268, 12.59676 ] } },
{ "type": "Feature", "properties": { "name": "Hồng Phong 1B", "mw": 100.0, "production_mkwh_year": 1946.0, "cons_start": 1527786000.0, "op_start": 1561914000.0, "adm_loc": "Bắc Bình", "region_loc": "Bình Thuận", "lat": 108.27197, "lon": 11.0789, "efficiency": 51.387461459403909 }, "geometry": { "type": "Point", "coordinates": [ 108.27197, 11.0789 ] } },
{ "type": "Feature", "properties": { "name": "Jang Pong GĐ1", "mw": 8.6, "production_mkwh_year": 175.0, "cons_start": 1535734800.0, "op_start": 1556643600.0, "adm_loc": "Buôn Đôn", "region_loc": "Đăk Lăk", "lat": 107.82408, "lon": 12.90392, "efficiency": 49.142857142857146 }, "geometry": { "type": "Point", "coordinates": [ 107.82408, 12.90392 ] } },
{ "type": "Feature", "properties": { "name": "Dohwa Lệ Thủy", "mw": 47.6, "production_mkwh_year": 6581.0, "cons_start": 1590944400.0, "op_start": 1606755600.0, "adm_loc": "Lệ Thủy", "region_loc": "Quảng Bình", "lat": 106.86676, "lon": 17.23507, "efficiency": 7.232943321683635 }, "geometry": { "type": "Point", "coordinates": [ 106.86676, 17.23507 ] } },
{ "type": "Feature", "properties": { "name": "Sinenergy Ninh Thuận 1", "mw": 50.0, "production_mkwh_year": 7825.0, "cons_start": 1543597200.0, "op_start": 1569862800.0, "adm_loc": "Ninh Phước", "region_loc": "Ninh Thuận", "lat": 108.8682682, "lon": 11.54703957, "efficiency": 6.3897763578274764 }, "geometry": { "type": "Point", "coordinates": [ 108.8682682, 11.54703957 ] } },
{ "type": "Feature", "properties": { "name": "Lộc Ninh 1,2,3", "mw": 550.0, "production_mkwh_year": 88167.0, "cons_start": null, "op_start": 1606755600.0, "adm_loc": "Lộc Ninh", "region_loc": "Bình Phước", "lat": 106.47106, "lon": 11.94679, "efficiency": 6.2381616704662743 }, "geometry": { "type": "Point", "coordinates": [ 106.47106, 11.94679 ] } },
{ "type": "Feature", "properties": { "name": "Hồng Phong 1A", "mw": 150.0, "production_mkwh_year": 28443.0, "cons_start": 1527786000.0, "op_start": 1561914000.0, "adm_loc": "Bắc Bình", "region_loc": "Bình Thuận", "lat": 108.2825, "lon": 11.06509, "efficiency": 5.2737053053475371 }, "geometry": { "type": "Point", "coordinates": [ 108.2825, 11.06509 ] } },
{ "type": "Feature", "properties": { "name": "Đá Bạc 1", "mw": 48.0, "production_mkwh_year": 9597.0, "cons_start": 1527786000.0, "op_start": 1546275600.0, "adm_loc": "Châu Đức", "region_loc": "Bà Rịa Vũng Tàu", "lat": 107.28151, "lon": 10.5861, "efficiency": 5.0015629884338857 }, "geometry": { "type": "Point", "coordinates": [ 107.28151, 10.5861 ] } },
{ "type": "Feature", "properties": { "name": "Yên Định", "mw": 30.0, "production_mkwh_year": null, "cons_start": 1506790800.0, "op_start": 1543597200.0, "adm_loc": "Yên Định", "region_loc": "Thanh Hóa", "lat": 105.6179, "lon": 20.00246, "efficiency": null }, "geometry": { "type": "Point", "coordinates": [ 105.6179, 20.00246 ] } },
{ "type": "Feature", "properties": { "name": "Cẩm Hòa", "mw": 50.0, "production_mkwh_year": null, "cons_start": 1546275600.0, "op_start": 1559322000.0, "adm_loc": "Cẩm Xuyên", "region_loc": "Hà Tĩnh", "lat": 106.01623, "lon": 18.32755, "efficiency": null }, "geometry": { "type": "Point", "coordinates": [ 106.01623, 18.32755 ] } },
{ "type": "Feature", "properties": { "name": "Cẩm Hưng", "mw": 29.0, "production_mkwh_year": null, "cons_start": 1514739600.0, "op_start": 1577811600.0, "adm_loc": "Cẩm Xuyên", "region_loc": "Hà Tĩnh", "lat": 105.99599, "lon": 18.21209, "efficiency": null }, "geometry": { "type": "Point", "coordinates": [ 105.99599, 18.21209 ] } },
{ "type": "Feature", "properties": { "name": "Sơn Quang", "mw": 29.0, "production_mkwh_year": null, "cons_start": 1514739600.0, "op_start": 1577811600.0, "adm_loc": "Hương Sơn", "region_loc": "Hà Tĩnh", "lat": 105.3933, "lon": 18.5113, "efficiency": null }, "geometry": { "type": "Point", "coordinates": [ 105.3933, 18.5113 ] } },
{ "type": "Feature", "properties": { "name": "Fujiwara Bình Định", "mw": 50.0, "production_mkwh_year": null, "cons_start": 1527786000.0, "op_start": 1548954000.0, "adm_loc": "inh tế Nhơn Hội thành phố Quy Nhơn", "region_loc": "Bình Định", "lat": 109.26321, "lon": 13.78141, "efficiency": null }, "geometry": { "type": "Point", "coordinates": [ 109.26321, 13.78141 ] } },
{ "type": "Feature", "properties": { "name": "Phù Mỹ", "mw": 216.0, "production_mkwh_year": null, "cons_start": 1588266000.0, "op_start": 1606755600.0, "adm_loc": "Phù Mỹ", "region_loc": "Bình Định", "lat": 109.15901, "lon": 14.30351, "efficiency": null }, "geometry": { "type": "Point", "coordinates": [ 109.15901, 14.30351 ] } },
{ "type": "Feature", "properties": { "name": "LIG Chư Ngọc", "mw": 15.0, "production_mkwh_year": null, "cons_start": 1548954000.0, "op_start": 1556643600.0, "adm_loc": "Krông Pa", "region_loc": "Gia Lai", "lat": 108.63769, "lon": 13.24507, "efficiency": null }, "geometry": { "type": "Point", "coordinates": [ 108.63769, 13.24507 ] } },
{ "type": "Feature", "properties": { "name": "Europlast Phú Yên", "mw": 44.7, "production_mkwh_year": null, "cons_start": 1514739600.0, "op_start": 1559322000.0, "adm_loc": "Tây Hòa", "region_loc": "Phú Yên", "lat": 109.09641, "lon": 12.96734, "efficiency": null }, "geometry": { "type": "Point", "coordinates": [ 109.09641, 12.96734 ] } },
{ "type": "Feature", "properties": { "name": "Thành Long Phú Yên", "mw": 50.0, "production_mkwh_year": null, "cons_start": null, "op_start": 1606755600.0, "adm_loc": "Tây Hòa", "region_loc": "Phú Yên", "lat": 109.09102, "lon": 13.00324, "efficiency": null }, "geometry": { "type": "Point", "coordinates": [ 109.09102, 13.00324 ] } },
{ "type": "Feature", "properties": { "name": "Thịnh Long AAA Phú Yên", "mw": 50.0, "production_mkwh_year": null, "cons_start": 1514739600.0, "op_start": 1567270800.0, "adm_loc": "Tây Hòa", "region_loc": "Phú Yên", "lat": 109.0947, "lon": 12.96901, "efficiency": null }, "geometry": { "type": "Point", "coordinates": [ 109.0947, 12.96901 ] } },
{ "type": "Feature", "properties": { "name": "Ia Lốp 1", "mw": 50.0, "production_mkwh_year": null, "cons_start": 1514739600.0, "op_start": 1546275600.0, "adm_loc": "Ea Súp", "region_loc": "Đăk Lăk", "lat": 107.69502, "lon": 13.35244, "efficiency": null }, "geometry": { "type": "Point", "coordinates": [ 107.69502, 13.35244 ] } },
{ "type": "Feature", "properties": { "name": "Long Thành 1", "mw": 50.0, "production_mkwh_year": null, "cons_start": 1535734800.0, "op_start": 1559322000.0, "adm_loc": "Ea Súp", "region_loc": "Đăk Lăk", "lat": 107.66489, "lon": 13.30915, "efficiency": null }, "geometry": { "type": "Point", "coordinates": [ 107.66489, 13.30915 ] } },
{ "type": "Feature", "properties": { "name": "Srêpôk 1", "mw": 100.0, "production_mkwh_year": null, "cons_start": 1530378000.0, "op_start": 1551373200.0, "adm_loc": "Buôn Đôn", "region_loc": "Đăk Lăk", "lat": 107.88208, "lon": 12.85209, "efficiency": null }, "geometry": { "type": "Point", "coordinates": [ 107.88208, 12.85209 ] } },
{ "type": "Feature", "properties": { "name": "Điện lực Miền Trung", "mw": 8.5, "production_mkwh_year": null, "cons_start": 1546275600.0, "op_start": 1559322000.0, "adm_loc": "Cam Lâm", "region_loc": "Khánh Hòa", "lat": 109.08696, "lon": 12.00942, "efficiency": null }, "geometry": { "type": "Point", "coordinates": [ 109.08696, 12.00942 ] } },
{ "type": "Feature", "properties": { "name": "Long Sơn", "mw": 170.0, "production_mkwh_year": null, "cons_start": 1546275600.0, "op_start": 1575133200.0, "adm_loc": "nh Sơn thị xã Ninh Hòa", "region_loc": "Khánh Hòa", "lat": 109.10429, "lon": 12.61588, "efficiency": null }, "geometry": { "type": "Point", "coordinates": [ 109.10429, 12.61588 ] } },
{ "type": "Feature", "properties": { "name": "Trung Sơn", "mw": 35.0, "production_mkwh_year": null, "cons_start": 1593536400.0, "op_start": 1606755600.0, "adm_loc": "Cam Lâm", "region_loc": "Khánh Hòa", "lat": 109.10473, "lon": 12.0106, "efficiency": null }, "geometry": { "type": "Point", "coordinates": [ 109.10473, 12.0106 ] } },
{ "type": "Feature", "properties": { "name": "Tuấn Ân", "mw": 9.6, "production_mkwh_year": null, "cons_start": 1548954000.0, "op_start": 1606755600.0, "adm_loc": "Vạn Ninh", "region_loc": "Khánh Hòa", "lat": 109.08648, "lon": 11.87907, "efficiency": null }, "geometry": { "type": "Point", "coordinates": [ 109.08648, 11.87907 ] } },
{ "type": "Feature", "properties": { "name": "Bàu Zôn", "mw": 25.0, "production_mkwh_year": null, "cons_start": 1546275600.0, "op_start": 1577811600.0, "adm_loc": "Ninh Phước", "region_loc": "Ninh Thuận", "lat": 108.86833, "lon": 11.52625, "efficiency": null }, "geometry": { "type": "Point", "coordinates": [ 108.86833, 11.52625 ] } },
{ "type": "Feature", "properties": { "name": "CMX Renewable Việt Nam", "mw": 168.0, "production_mkwh_year": null, "cons_start": 1530378000.0, "op_start": 1559322000.0, "adm_loc": "Ninh Sơn", "region_loc": "Ninh Thuận", "lat": 108.82987, "lon": 11.69987, "efficiency": null }, "geometry": { "type": "Point", "coordinates": [ 108.82987, 11.69987 ] } },
{ "type": "Feature", "properties": { "name": "Hà Đô Ninh Phước", "mw": 40.0, "production_mkwh_year": null, "cons_start": 1590944400.0, "op_start": 1598893200.0, "adm_loc": "Ninh Phước", "region_loc": "Ninh Thuận", "lat": 108.86324, "lon": 11.58882, "efficiency": null }, "geometry": { "type": "Point", "coordinates": [ 108.86324, 11.58882 ] } },
{ "type": "Feature", "properties": { "name": "Mỹ Sơn 1", "mw": 50.0, "production_mkwh_year": null, "cons_start": 1514739600.0, "op_start": 1543597200.0, "adm_loc": "Ninh Sơn", "region_loc": "Ninh Thuận", "lat": 108.8848, "lon": 11.70285, "efficiency": null }, "geometry": { "type": "Point", "coordinates": [ 108.8848, 11.70285 ] } },
{ "type": "Feature", "properties": { "name": "Mỹ Sơn 2", "mw": 50.0, "production_mkwh_year": null, "cons_start": 1546275600.0, "op_start": 1575133200.0, "adm_loc": "Ninh Sơn", "region_loc": "Ninh Thuận", "lat": 108.80409, "lon": 11.68574, "efficiency": null }, "geometry": { "type": "Point", "coordinates": [ 108.80409, 11.68574 ] } },
{ "type": "Feature", "properties": { "name": "Mỹ Sơn Hoàn Lộc Việt", "mw": 50.0, "production_mkwh_year": null, "cons_start": 1514739600.0, "op_start": 1543597200.0, "adm_loc": "Ninh Sơn", "region_loc": "Ninh Thuận", "lat": 108.8109, "lon": 11.67143, "efficiency": null }, "geometry": { "type": "Point", "coordinates": [ 108.8109, 11.67143 ] } },
{ "type": "Feature", "properties": { "name": "Ninh Phước 6.1", "mw": 58.3, "production_mkwh_year": null, "cons_start": 1514739600.0, "op_start": 1559322000.0, "adm_loc": "Ninh Phước", "region_loc": "Ninh Thuận", "lat": 108.87315, "lon": 11.52843, "efficiency": null }, "geometry": { "type": "Point", "coordinates": [ 108.87315, 11.52843 ] } },
{ "type": "Feature", "properties": { "name": "Ninh Phước 6.2", "mw": 50.0, "production_mkwh_year": null, "cons_start": 1514739600.0, "op_start": 1546275600.0, "adm_loc": "Ninh Phước", "region_loc": "Ninh Thuận", "lat": 108.87169, "lon": 11.53302, "efficiency": null }, "geometry": { "type": "Point", "coordinates": [ 108.87169, 11.53302 ] } },
{ "type": "Feature", "properties": { "name": "Phước Hữu - Điện lực 1", "mw": 30.0, "production_mkwh_year": null, "cons_start": 1530378000.0, "op_start": 1561914000.0, "adm_loc": "Ninh Phước", "region_loc": "Ninh Thuận", "lat": 108.87328, "lon": 11.5073, "efficiency": null }, "geometry": { "type": "Point", "coordinates": [ 108.87328, 11.5073 ] } },
{ "type": "Feature", "properties": { "name": "Phước Hữu - Vịnh Nha Trang", "mw": 50.0, "production_mkwh_year": null, "cons_start": 1522515600.0, "op_start": 1559322000.0, "adm_loc": "Ninh Phước", "region_loc": "Ninh Thuận", "lat": 108.85617, "lon": 11.51507, "efficiency": null }, "geometry": { "type": "Point", "coordinates": [ 108.85617, 11.51507 ] } },
{ "type": "Feature", "properties": { "name": "Phước Minh", "mw": 49.8, "production_mkwh_year": null, "cons_start": 1514739600.0, "op_start": 1588266000.0, "adm_loc": "Thuận Nam", "region_loc": "Ninh Thuận", "lat": 108.88501, "lon": 11.43833, "efficiency": null }, "geometry": { "type": "Point", "coordinates": [ 108.88501, 11.43833 ] } },
{ "type": "Feature", "properties": { "name": "SP-Infra 1", "mw": 50.0, "production_mkwh_year": null, "cons_start": 1522515600.0, "op_start": 1559322000.0, "adm_loc": "Ninh Phước", "region_loc": "Ninh Thuận", "lat": 108.86533, "lon": 11.59308, "efficiency": null }, "geometry": { "type": "Point", "coordinates": [ 108.86533, 11.59308 ] } },
{ "type": "Feature", "properties": { "name": "Thiên Tân 1.2", "mw": 100.0, "production_mkwh_year": null, "cons_start": 1567270800.0, "op_start": 1609434000.0, "adm_loc": "Thuận Nam", "region_loc": "Ninh Thuận", "lat": 108.77879, "lon": 11.44697, "efficiency": null }, "geometry": { "type": "Point", "coordinates": [ 108.77879, 11.44697 ] } },
{ "type": "Feature", "properties": { "name": "Thiên Tân 1.3", "mw": 50.0, "production_mkwh_year": null, "cons_start": 1567270800.0, "op_start": 1609434000.0, "adm_loc": "Ninh Phước", "region_loc": "Ninh Thuận", "lat": 108.82557, "lon": 11.62562, "efficiency": null }, "geometry": { "type": "Point", "coordinates": [ 108.82557, 11.62562 ] } },
{ "type": "Feature", "properties": { "name": "Thiên Tân Solar Ninh Thuận", "mw": 50.0, "production_mkwh_year": null, "cons_start": 1561914000.0, "op_start": 1582995600.0, "adm_loc": "Bác Ái", "region_loc": "Ninh Thuận", "lat": 108.96191, "lon": 11.68329, "efficiency": null }, "geometry": { "type": "Point", "coordinates": [ 108.96191, 11.68329 ] } },
{ "type": "Feature", "properties": { "name": "Thuận Nam 19", "mw": 49.0, "production_mkwh_year": null, "cons_start": 1522515600.0, "op_start": 1556643600.0, "adm_loc": "Thuận Nam", "region_loc": "Ninh Thuận", "lat": 108.91343, "lon": 11.44067, "efficiency": null }, "geometry": { "type": "Point", "coordinates": [ 108.91343, 11.44067 ] } },
{ "type": "Feature", "properties": { "name": "Thuận Nam Đức Long", "mw": 50.0, "production_mkwh_year": null, "cons_start": 1567270800.0, "op_start": 1575133200.0, "adm_loc": "Thuận Nam", "region_loc": "Ninh Thuận", "lat": 108.85488, "lon": 11.41566, "efficiency": null }, "geometry": { "type": "Point", "coordinates": [ 108.85488, 11.41566 ] } },
{ "type": "Feature", "properties": { "name": "Trung Nam Thuận Nam", "mw": 450.0, "production_mkwh_year": null, "cons_start": 1590944400.0, "op_start": 1601485200.0, "adm_loc": "Thuận Nam", "region_loc": "Ninh Thuận", "lat": 108.85736, "lon": 11.43528, "efficiency": null }, "geometry": { "type": "Point", "coordinates": [ 108.85736, 11.43528 ] } },
{ "type": "Feature", "properties": { "name": "Xuân Thành", "mw": 30.0, "production_mkwh_year": null, "cons_start": 1546275600.0, "op_start": 1577811600.0, "adm_loc": "Ninh Phước", "region_loc": "Ninh Thuận", "lat": 108.7989, "lon": 11.45987, "efficiency": null }, "geometry": { "type": "Point", "coordinates": [ 108.7989, 11.45987 ] } },
{ "type": "Feature", "properties": { "name": "Bình An", "mw": 50.0, "production_mkwh_year": null, "cons_start": 1530378000.0, "op_start": 1559322000.0, "adm_loc": "Bắc Bình", "region_loc": "Bình Thuận", "lat": 108.42702, "lon": 11.31379, "efficiency": null }, "geometry": { "type": "Point", "coordinates": [ 108.42702, 11.31379 ] } },
{ "type": "Feature", "properties": { "name": "Eco Seido Tuy Phong", "mw": 40.0, "production_mkwh_year": null, "cons_start": 1517418000.0, "op_start": 1559322000.0, "adm_loc": "Tuy Phong", "region_loc": "Bình Thuận", "lat": 108.67843, "lon": 11.23138, "efficiency": null }, "geometry": { "type": "Point", "coordinates": [ 108.67843, 11.23138 ] } },
{ "type": "Feature", "properties": { "name": "Hàm Kiệm", "mw": 49.0, "production_mkwh_year": null, "cons_start": 1527786000.0, "op_start": 1546275600.0, "adm_loc": "Hàm Thuận Nam", "region_loc": "Bình Thuận", "lat": 108.01045, "lon": 10.90584, "efficiency": null }, "geometry": { "type": "Point", "coordinates": [ 108.01045, 10.90584 ] } },
{ "type": "Feature", "properties": { "name": "Hồng Liêm 3", "mw": 50.0, "production_mkwh_year": null, "cons_start": 1546275600.0, "op_start": 1609434000.0, "adm_loc": "Hàm Thuận Bắc", "region_loc": "Bình Thuận", "lat": 108.28356, "lon": 11.15893, "efficiency": null }, "geometry": { "type": "Point", "coordinates": [ 108.28356, 11.15893 ] } },
{ "type": "Feature", "properties": { "name": "Phan Lâm 1", "mw": 36.72, "production_mkwh_year": null, "cons_start": 1546275600.0, "op_start": 1559322000.0, "adm_loc": "Bắc Bình", "region_loc": "Bình Thuận", "lat": 108.3643, "lon": 11.33152, "efficiency": null }, "geometry": { "type": "Point", "coordinates": [ 108.3643, 11.33152 ] } },
{ "type": "Feature", "properties": { "name": "Phan Lâm 2", "mw": 49.0, "production_mkwh_year": null, "cons_start": 1517418000.0, "op_start": 1559322000.0, "adm_loc": "Bắc Bình", "region_loc": "Bình Thuận", "lat": 108.3491, "lon": 11.32681, "efficiency": null }, "geometry": { "type": "Point", "coordinates": [ 108.3491, 11.32681 ] } },
{ "type": "Feature", "properties": { "name": "Sơn Mỹ 3.1", "mw": 50.0, "production_mkwh_year": null, "cons_start": 1522515600.0, "op_start": 1559322000.0, "adm_loc": "Hàm Tân", "region_loc": "Bình Thuận", "lat": 107.67029, "lon": 10.65878, "efficiency": null }, "geometry": { "type": "Point", "coordinates": [ 107.67029, 10.65878 ] } },
{ "type": "Feature", "properties": { "name": "Sông Bình 1", "mw": 50.0, "production_mkwh_year": null, "cons_start": 1535734800.0, "op_start": 1546275600.0, "adm_loc": "Bắc Bình", "region_loc": "Bình Thuận", "lat": 108.33297, "lon": 11.23939, "efficiency": null }, "geometry": { "type": "Point", "coordinates": [ 108.33297, 11.23939 ] } },
{ "type": "Feature", "properties": { "name": "Thuận Minh 2", "mw": 50.0, "production_mkwh_year": null, "cons_start": 1530378000.0, "op_start": 1567270800.0, "adm_loc": "Hàm Thuận Bắc", "region_loc": "Bình Thuận", "lat": 108.05175, "lon": 11.11333, "efficiency": null }, "geometry": { "type": "Point", "coordinates": [ 108.05175, 11.11333 ] } },
{ "type": "Feature", "properties": { "name": "TTC Hàm Phú 2", "mw": 49.0, "production_mkwh_year": null, "cons_start": 1530378000.0, "op_start": 1556643600.0, "adm_loc": "Hàm Thuận Bắc", "region_loc": "Bình Thuận", "lat": 108.07317, "lon": 11.15545, "efficiency": null }, "geometry": { "type": "Point", "coordinates": [ 108.07317, 11.15545 ] } },
{ "type": "Feature", "properties": { "name": "Vĩnh Hảo", "mw": 30.0, "production_mkwh_year": null, "cons_start": 1501520400.0, "op_start": 1559322000.0, "adm_loc": "Tuy Phong", "region_loc": "Bình Thuận", "lat": 108.73295, "lon": 11.2806, "efficiency": null }, "geometry": { "type": "Point", "coordinates": [ 108.73295, 11.2806 ] } },
{ "type": "Feature", "properties": { "name": "Vĩnh Hảo 4", "mw": 39.0, "production_mkwh_year": null, "cons_start": 1514739600.0, "op_start": 1559322000.0, "adm_loc": "Tuy Phong", "region_loc": "Bình Thuận", "lat": 108.7336, "lon": 11.29866, "efficiency": null }, "geometry": { "type": "Point", "coordinates": [ 108.7336, 11.29866 ] } },
{ "type": "Feature", "properties": { "name": "Bách Khoa Á Châu 1", "mw": 30.0, "production_mkwh_year": null, "cons_start": 1514739600.0, "op_start": 1561914000.0, "adm_loc": "Tân Châu", "region_loc": "Tây Ninh", "lat": 106.21802, "lon": 11.52107, "efficiency": null }, "geometry": { "type": "Point", "coordinates": [ 106.21802, 11.52107 ] } },
{ "type": "Feature", "properties": { "name": "HCG&HTG", "mw": 100.0, "production_mkwh_year": null, "cons_start": 1514739600.0, "op_start": 1559322000.0, "adm_loc": "Bến Cầu", "region_loc": "Tây Ninh", "lat": 106.16262, "lon": 11.10181, "efficiency": null }, "geometry": { "type": "Point", "coordinates": [ 106.16262, 11.10181 ] } },
{ "type": "Feature", "properties": { "name": "Tân Châu 1", "mw": 50.0, "production_mkwh_year": null, "cons_start": 1577811600.0, "op_start": 1601485200.0, "adm_loc": "Tân Châu", "region_loc": "Tây Ninh", "lat": 106.2603, "lon": 11.47543, "efficiency": null }, "geometry": { "type": "Point", "coordinates": [ 106.2603, 11.47543 ] } },
{ "type": "Feature", "properties": { "name": "Trí Việt 1", "mw": 30.0, "production_mkwh_year": null, "cons_start": 1514739600.0, "op_start": 1561914000.0, "adm_loc": "Tân Châu", "region_loc": "Tây Ninh", "lat": 106.22165, "lon": 11.51712, "efficiency": null }, "geometry": { "type": "Point", "coordinates": [ 106.22165, 11.51712 ] } },
{ "type": "Feature", "properties": { "name": "Europlast Long An", "mw": 50.0, "production_mkwh_year": null, "cons_start": 1527786000.0, "op_start": 1559322000.0, "adm_loc": "Đức Huệ", "region_loc": "Long An", "lat": 106.23726, "lon": 10.94038, "efficiency": null }, "geometry": { "type": "Point", "coordinates": [ 106.23726, 10.94038 ] } },
{ "type": "Feature", "properties": { "name": "Solar Park 1", "mw": 50.0, "production_mkwh_year": null, "cons_start": 1548954000.0, "op_start": 1567270800.0, "adm_loc": "Đức Huệ", "region_loc": "Long An", "lat": 106.31354, "lon": 10.78228, "efficiency": null }, "geometry": { "type": "Point", "coordinates": [ 106.31354, 10.78228 ] } },
{ "type": "Feature", "properties": { "name": "TTC Đức Huệ 1", "mw": 49.0, "production_mkwh_year": null, "cons_start": 1533056400.0, "op_start": 1556643600.0, "adm_loc": "Đức Huệ", "region_loc": "Long An", "lat": 106.24537, "lon": 10.94624, "efficiency": null }, "geometry": { "type": "Point", "coordinates": [ 106.24537, 10.94624 ] } },
{ "type": "Feature", "properties": { "name": "TTC Đức Huệ 2", "mw": 49.0, "production_mkwh_year": null, "cons_start": 1556643600.0, "op_start": 1577811600.0, "adm_loc": "Đức Huệ", "region_loc": "Long An", "lat": 106.26084, "lon": 10.91468, "efficiency": null }, "geometry": { "type": "Point", "coordinates": [ 106.26084, 10.91468 ] } },
{ "type": "Feature", "properties": { "name": "Hồ Gia Hoét 1", "mw": 35.0, "production_mkwh_year": null, "cons_start": 1572541200.0, "op_start": 1596214800.0, "adm_loc": "Châu Đức", "region_loc": "Bà Rịa Vũng Tàu", "lat": 107.28892, "lon": 10.70183, "efficiency": null }, "geometry": { "type": "Point", "coordinates": [ 107.28892, 10.70183 ] } },
{ "type": "Feature", "properties": { "name": "Hồ Tầm Bó", "mw": 35.0, "production_mkwh_year": null, "cons_start": 1572541200.0, "op_start": 1596214800.0, "adm_loc": "Châu Đức", "region_loc": "Bà Rịa Vũng Tàu", "lat": 107.26618, "lon": 10.69919, "efficiency": null }, "geometry": { "type": "Point", "coordinates": [ 107.26618, 10.69919 ] } },
{ "type": "Feature", "properties": { "name": "KCN Châu Đức", "mw": 70.0, "production_mkwh_year": null, "cons_start": 1530378000.0, "op_start": 1546275600.0, "adm_loc": "Châu Đức", "region_loc": "Bà Rịa Vũng Tàu", "lat": 107.18127, "lon": 10.57919, "efficiency": null }, "geometry": { "type": "Point", "coordinates": [ 107.18127, 10.57919 ] } },
{ "type": "Feature", "properties": { "name": "Bình Hòa", "mw": 10.0, "production_mkwh_year": null, "cons_start": 1519837200.0, "op_start": 1559322000.0, "adm_loc": "Châu Thành", "region_loc": "An Giang", "lat": 105.34115, "lon": 10.45697, "efficiency": null }, "geometry": { "type": "Point", "coordinates": [ 105.34115, 10.45697 ] } },
{ "type": "Feature", "properties": { "name": "Hậu Giang", "mw": 29.0, "production_mkwh_year": null, "cons_start": 1590944400.0, "op_start": 1606755600.0, "adm_loc": "Phụng Hiệp", "region_loc": "Hậu Giang", "lat": 105.6187, "lon": 9.75956, "efficiency": null }, "geometry": { "type": "Point", "coordinates": [ 105.6187, 9.75956 ] } }
]
}
